Name,Parish,Price,Bedrooms,Bathrooms,HasGarden,HasGarage,Status,Market,MarketType,PropertyType,Longitude,Latitude
"Maison De La Cotte","ST_PETER_PORT","3250000.00","5","4","true","true","AVAILABLE","Open","Buy","House","-2.5409850","49.4433099"
"2, Choisi Terrace","ST_PETER_PORT","5750000.00","7","4","true",,"AVAILABLE","Open","Buy","Cottage","-2.5483030","49.4559721"
"Guennola","CASTEL","3300000.00","5","4","true",,"AVAILABLE","Local","Buy","House","-2.5947399","49.4614698"
"Chamberlain House","ST_PETER_PORT",,"4","4","true","true","AVAILABLE","Open","Buy","Bungalow","-2.5364406","49.4434710"
"Apartment 31","ST_PETER_PORT","1950000.00","2","2","true",,"AVAILABLE","Open","Buy","Apartment","-2.5387260","49.4586398"
"2, Infinity Views","ST_PETER_PORT","1375000.00","4","3","true","true","AVAILABLE","Local","Buy","House","-2.5472890","49.4542240"
"La Chataignier","ST_PETER_PORT","1195000.00","5","3","true",,"AVAILABLE","Open","Buy","House","-2.5429890","49.4653050"
"Rothbury","ST_PETER_PORT","800000.00","3","1","true",,"AVAILABLE","Open","Buy","House","-2.5444600","49.4589799"
"Ste Helene Manor","ST_ANDREW","8687000.00","7","6","true",,"AVAILABLE","Open","Buy","Georgian","-2.5785659","49.4441898"
"Reffee","ST_PETER_PORT","6500000.00","3","3",,,"AVAILABLE","Open","Buy","Apartment","-2.5348160","49.4589620"
"La Belle Vue","ST_PETER_PORT","10650000.00","6","6","true","true","AVAILABLE","Open","Buy","House","-2.5355609","49.4378770"
"Courtil Landelle","CASTEL","2800000.00","4","4","true","true","AVAILABLE","Open","Buy","House","-2.5793919","49.4612108"
"Rocquaine House","ST_PETERS","1500000.00",,,"true",,"AVAILABLE","Local","Buy","Apartment","-2.6485829","49.4393378"
"Pen-Y-Bryn","ST_PETER_PORT","1550000.00",,,"true",,"AVAILABLE","Open","Buy","House","-2.5502780","49.4557854"
"Spindrift","ST_PETER_PORT",,,,"true",,"AVAILABLE","Open","Buy","Apartment","-2.5356177","49.4382345"
"Flat 3","ST_PETER_PORT","315000.00","1","1",,,"AVAILABLE","Local","Buy","Flat","-2.5416934","49.4521704"
"Mont Havelet Court","ST_PETER_PORT","3350000.00","4","4","true",,"AVAILABLE","Open","Buy","Apartment","-2.5399145","49.4499250"
"La Grande Remise","SARK","285000.00",,,,,"AVAILABLE","Open","Buy","Bungalow","-2.3545539","49.4318075"
"Beau Sejour","SARK","565000.00","3","3","true",,"AVAILABLE",,"Buy","Guest house","-2.3688137","49.4365430"
"Burwood","ST_PETER_PORT","1250000.00","5","3","true",,"AVAILABLE","Open","Buy","Terraced","-2.5443560","49.4593818"
"The Heathers","ST_PETER_PORT","475000.00","2","2","true",,"AVAILABLE","Local","Buy","Terraced","-2.5376930","49.4695970"
"Eastwood","ST_PETER_PORT","1795000.00","5","3","true",,"AVAILABLE","Open","Buy","House","-2.5512527","49.4506640"
"16 Cornet Street","ST_PETER_PORT","450000.00",,,"true",,"AVAILABLE","Local","Buy","Office","-2.5367446","49.4535083"
"Mayfield","ST_SAMPSON","750000.00","4","2","true",,"AVAILABLE","Local","Buy","Semi-Detached","-2.5497749","49.4774870"
"La Haute Banque","VALE","1950000.00","4","3","true","true","AVAILABLE","Open","Buy","House","-2.5053708","49.4947609"
"Rosebud Freehold","SARK","850000.00",,,"true",,"AVAILABLE","Local","Buy","Semi-Detached","-2.3610166","49.4315793"
"12, Westerbrook Complex","ST_SAMPSON",,,,,,"AVAILABLE","Local","Buy","Office","-2.5185643","49.4820846"
"La Haize","ST_SAMPSON","525000.00","2","2",,,"AVAILABLE","Local","Buy","Apartment","-2.5526220","49.4811649"
"Le Grand Chardon","ST_SAMPSON","1250000.00","6","3","true",,"AVAILABLE","Open","Buy","Semi-Detached","-2.5325087","49.4818308"
"No 2 Cofton Mews","ST_PETER_PORT","995000.00","4","2","true",,"AVAILABLE","Local","Buy","Semi-Detached","-2.5497679","49.4613500"
"La Maisonette","ST_PETER_PORT","875000.00","3","2","true","true","AVAILABLE","Local","Buy","House","-2.5520939","49.4534925"
"Sark Island Stores & Bakery","SARK","750000.00","3","1",,,"AVAILABLE","Open","Buy","Apartment","-2.3559350","49.4317319"
"Le Mont","ST_PETER_PORT","1195000.00","3","2","true",,"AVAILABLE","Local","Buy","Terraced","-2.5390510","49.4540069"
"Le Mistral","ST_PETER_PORT","2500000.00","5","4","true","true","AVAILABLE","Open","Buy","House","-2.5410339","49.4461450"
"Chelvaton","ST_PETER_PORT","1295000.00","3","2","true","true","AVAILABLE","Open","Buy","House","-2.5523189","49.4526918"
"34","ST_PETER_PORT","480000.00",,,"true",,"AVAILABLE","Local","Buy","Cottage","-2.5433146","49.4520190"
"Maison Allaire","ST_PETER_PORT",,,,,,"AVAILABLE","Local","Buy","Office","-2.5372767","49.4572027"
"Les Rouvets","ST_SAVIOUR","1950000.00","6","2",,,"AVAILABLE","Open","Buy","House","-2.6372670","49.4555480"
"La Chaumiere","VALE","895000.00","2","1",,,"AVAILABLE","Local","Buy","House","-2.5311680","49.4942500"
"Mont Bleu","ST_PETER_PORT","5500000.00","8","7","true","true","AVAILABLE","Open","Buy","Terraced","-2.5362285","49.4609639"
"2, Byways","ST_PETER_PORT","450000.00","2","1",,,"AVAILABLE","Local","Buy","Terraced","-2.5386459","49.4650088"
"Le Vidcocq","ST_PETERS","1295000.00","5","2","true","true","AVAILABLE","Local","Buy","Cottage","-2.6310736","49.4325436"
"16","ST_PETER_PORT","825000.00","5","2","true",,"AVAILABLE","Local","Buy","House","-2.5523630","49.4504700"
"22","ST_PETER_PORT",,,,,,"AVAILABLE","Local","Buy","Office","-2.5369980","49.4569236"
"The Elms","ST_PETER_PORT","6500000.00","6","6","true",,"AVAILABLE","Open","Buy","House","-2.5395140","49.4600360"
"Richmond House","ST_PETER_PORT","2200000.00",,,"true",,"AVAILABLE","Local","Buy","Apartment","-2.5407003","49.4605336"
"34","VALE","372500.00","1","1","true",,"AVAILABLE","Local","Buy","House","-2.5231365","49.4873777"
"Hazeleigh","ST_PETERS","1750000.00","6","6",,,"AVAILABLE","Local","Buy","House","-2.6255123","49.4380116"
"La Colline House","ST_PETER_PORT","408000.00","2","1","true","true","AVAILABLE","Local","Buy","Apartment","-2.5359202","49.4598281"
"Roustel House","ST_PETER_PORT","635000.00","2","2",,,"AVAILABLE","Local","Buy","Apartment","-2.5348590","49.4594990"
"Fougere House","ST_PETER_PORT","635000.00","2","2",,,"AVAILABLE","Local","Buy","Apartment","-2.5335179","49.4605310"
"Roustel House","ST_PETER_PORT","499000.00","2","1",,,"AVAILABLE","Local","Buy","Apartment","-2.5347840","49.4595130"
"Chiswell House","ST_MARTINS","945000.00","6","2","true","true","AVAILABLE","Local","Buy","House","-2.5582948","49.4337378"
"Abbiamo Vinto","VALE","925000.00","2","1","true","true","AVAILABLE","Local","Buy","House","-2.5622820","49.4754689"
"17, Millmount","ST_PETER_PORT","308000.00","1","1",,,"AVAILABLE","Local","Buy","Apartment","-2.5430700","49.4497988"
"36","ST_PETER_PORT","1095000.00","1","1","true",,"AVAILABLE","Local","Buy","Apartment","-2.5540120","49.4504998"
"Dans Le Couogn","ST_SAVIOUR","560000.00",,,"true",,"AVAILABLE","Local","Buy","Semi-Detached","-2.6040654","49.4380880"
"Mirabelle","ST_PETER_PORT","575000.00","3","1","true","true","AVAILABLE","Local","Buy","Semi-Detached","-2.5547132","49.4658817"
"Malvern House","ST_PETER_PORT","1350000.00","5","3","true","true","AVAILABLE","Open","Buy","House","-2.5400800","49.4584188"
"Mandra Lodge","ST_PETER_PORT","1060000.00","3","3",,"true","AVAILABLE","Local","Buy","House","-2.5400980","49.4411289"
"5, Rozel Terrace","ST_PETER_PORT","1275000.00","6","4","true",,"AVAILABLE","Open","Buy","House","-2.5436165","49.4524958"
"Stanthorpe","CASTEL","599000.00","3","1","true",,"AVAILABLE","Local","Buy","Bungalow","-2.5773440","49.4758840"
"Le Marchant House","ST_PETER_PORT","750000.00",,,"true",,"AVAILABLE","Local","Buy","Office","-2.5371060","49.4567252"
"Woodheys","VALE","720000.00","3","2","true",,"AVAILABLE","Local","Buy","Bungalow","-2.5209700","49.4955288"
"The Bungalow","SARK",,"4","1",,,"AVAILABLE","Open","Buy","Bungalow","-2.3603548","49.4422508"
"Amelaine","CASTEL","495000.00","2","1","true",,"AVAILABLE","Local","Buy","Bungalow","-2.5775383","49.4793549"
"White Walls","ST_PETER_PORT","875000.00","3","3","true","true","AVAILABLE","Open","Buy","Bungalow","-2.5589879","49.4581840"
"Crossways","ST_SAVIOUR","850000.00","4","1","true","true","AVAILABLE","Local","Buy","House","-2.6282782","49.4609557"
"Landour Cottage","ST_PETER_PORT","575000.00",,,"true",,"AVAILABLE","Local","Buy","Semi-Detached","-2.5436494","49.4541693"
"7 & 8 The Grange","ST_PETER_PORT","1200000.00","6","3",,,"AVAILABLE","Local","Buy","Office","-2.5406300","49.4560850"
"Redlands","ST_MARTINS","795000.00","3","1","true",,"AVAILABLE","Local","Buy","Bungalow","-2.5606659","49.4337098"
"Capelles Villa","ST_SAMPSON","1195000.00","5","5","true","true","AVAILABLE","Open","Buy","House","-2.5531969","49.4812470"
"Chan-Dily","ST_SAVIOUR","1195000.00","2","2",,"true","AVAILABLE","Local","Buy","Bungalow","-2.6281300","49.4657728"
"Saffron House","ST_MARTINS","1750000.00","5","3","true","true","AVAILABLE","Open","Buy","House","-2.5449320","49.4360848"
"Les Mouettes","VALE","2050000.00","4","3","true",,"AVAILABLE","Local","Buy","House","-2.5735907","49.4901415"
"Claremont House","ST_ANDREW","735000.00","4","2","true","true","AVAILABLE","Local","Buy","House","-2.5654319","49.4516988"
"Bon Air","ST_MARTINS","1145000.00","5","4","true",,"AVAILABLE","Local","Buy","House","-2.5401964","49.4299940"
"Two New Houses","ST_PETER_PORT","775000.00","3","3","true",,"AVAILABLE","Local","Buy","Semi-Detached","-2.5514610","49.4553999"
"Clearview","ST_PETER_PORT","520000.00","3","1","true",,"AVAILABLE","Local","Buy","House","-2.5564469","49.4648048"
"Norfolk Lodge","ST_PETER_PORT","1950000.00","5","4","true","true","AVAILABLE","Open","Buy","House","-2.5444160","49.4576447"
"Thornton","ST_PETER_PORT","995000.00","7","3","true","true","AVAILABLE","Open","Buy","House","-2.5427580","49.4386500"
"Roseleigh","ST_SAMPSON","675000.00","4","2","true","true","AVAILABLE","Local","Buy","House","-2.5289660","49.4759960"
"Kelandale","ST_PETER_PORT","460000.00",,,"true",,"AVAILABLE","Local","Buy","Apartment","-2.5556724","49.4599245"
"Oasis","VALE","1295000.00","5","3","true","true","AVAILABLE","Local","Buy","House","-2.5254400","49.4961229"
"Chabrique","ST_ANDREW","1250000.00","5","2","true","true","AVAILABLE","Local","Buy","House","-2.5608030","49.4505860"
"Apartment 9","ST_PETER_PORT","615000.00","2","2","true",,"AVAILABLE","Local","Buy","Apartment","-2.5470717","49.4567610"
"Apt. 8","ST_PETER_PORT","440000.00","1","1",,,"AVAILABLE","Local","Buy","Apartment","-2.5472898","49.4566976"
"Apt. 11","ST_PETER_PORT","510000.00","1","1",,,"AVAILABLE","Local","Buy","Apartment","-2.5473864","49.4566628"
"Apartment 15","ST_PETER_PORT","465000.00","1","1","true",,"AVAILABLE","Local","Buy","Apartment","-2.5471210","49.4567610"
"Apartment 3","ST_PETER_PORT","450000.00","1","1","true",,"AVAILABLE","Local","Buy","Apartment","-2.5471146","49.4567610"
"Apartment 14","ST_PETER_PORT","445000.00","1","1","true",,"AVAILABLE","Local","Buy","Apartment","-2.5471210","49.4567610"
"Apt. 12","ST_PETER_PORT","510000.00","1","1",,,"AVAILABLE","Local","Buy","Apartment","-2.5473756","49.4566976"
"Apt. 13","ST_PETER_PORT","445000.00","1","1",,,"AVAILABLE","Local","Buy","Apartment","-2.5474025","49.4566943"
"Les Cerisiers","VALE","1295000.00","4","2","true",,"AVAILABLE","Local","Buy","Bungalow","-2.5115170","49.5007880"
"Beau Sejour Flats","ST_SAMPSON","339000.00","1","1",,,"AVAILABLE","Local","Buy","Flat","-2.5308999","49.4763658"
"Pres De Moulin","ST_MARTINS","795000.00","4","1","true",,"AVAILABLE","Local","Buy","Bungalow","-2.5550600","49.4451320"
"Myrtle Cottage","SARK","450000.00","2","2",,,"AVAILABLE","Open","Buy","Cottage","-2.3525383","49.4323778"
"Skyway","ST_SAMPSON","775000.00","2","2","true",,"AVAILABLE","Local","Buy","House","-2.5352768","49.4875940"
"Buttercup Cottage","ST_SAMPSON","635000.00","3","1","true",,"AVAILABLE","Local","Buy","Cottage","-2.5664729","49.4907570"
"Seaview","ST_PETER_PORT","180000.00","2","1",,,"AVAILABLE","Local","Buy","House","-2.5376340","49.4552690"
"Seaview","ST_PETER_PORT","395000.00","2","1",,,"AVAILABLE","Local","Buy","House","-2.5375190","49.4551870"
"Kilchattan","ST_MARTINS","620000.00","3","1","true",,"AVAILABLE","Local","Buy","Bungalow","-2.5589881","49.4439130"
"Le Palmier","ST_PETER_PORT","1150000.00","5","4","true",,"AVAILABLE","Open","Buy","House","-2.5493670","49.4613050"
"Mont Havelet Court","ST_PETER_PORT","3195000.00","3","3","true","true","AVAILABLE","Open","Buy","Apartment","-2.5399010","49.4496410"
"Beauregard","ST_PETER_PORT","1550000.00","4","3","true","true","AVAILABLE","Open","Buy","House","-2.5420200","49.4642720"
"Maison De Haut","ST_SAVIOUR",,"5","3","true","true","AVAILABLE","Local","Buy","House","-2.6230639","49.4459310"
"Pantiles","CASTEL","875000.00","5","1","true","true","AVAILABLE","Local","Buy","House","-2.5848830","49.4853499"
"Flat 1","ST_PETER_PORT","195000.00","1","1",,,"AVAILABLE","Local","Buy","House","-2.5380630","49.4526899"
"The Willows","ST_MARTINS",,,,"true",,"AVAILABLE","Local","Buy","House","-2.5544867","49.4365536"
"Thistle Court","ST_PETER_PORT","165000.00",,,"true",,"AVAILABLE","Local","Buy","Apartment","-2.5518250","49.4638069"
"110","ST_PETER_PORT","760000.00","4","3","true",,"AVAILABLE","Local","Buy","Terraced","-2.5466009","49.4550635"
"Erin","ST_PETER_PORT","850000.00","5","2","true","true","AVAILABLE","Local","Buy","House","-2.5381908","49.4635260"
"Vivant","CASTEL","1035000.00","5","2","true",,"AVAILABLE","Local","Buy","Terraced","-2.5801120","49.4646370"
"Rozel House","ST_PETER_PORT","1575000.00","5","3","true","true","AVAILABLE","Open","Buy","Georgian","-2.5506343","49.4636471"
"Charnwood","VALE","785000.00","4","1","true","true","AVAILABLE","Local","Buy","Bungalow","-2.5706114","49.4836189"
"Coila","CASTEL","1850000.00","6","4","true","true","AVAILABLE","Local","Buy","House","-2.6272855","49.4625868"
"Two Oaks Plot","VALE","525000.00",,,,,"AVAILABLE","Local","Buy","Bungalow","-2.5641538","49.4819936"
"La Reserve","ST_PETER_PORT","425000.00","2","1",,,"AVAILABLE","Local","Buy","Flat","-2.5355189","49.4616490"
"New Century House","ST_PETER_PORT",,,,,,"AVAILABLE","Local","Buy","Office","-2.5363209","49.4517017"
"Sous La Foret","CASTEL","990000.00","3","1","true","true","AVAILABLE","Open","Buy","House","-2.5901930","49.4742468"
"Treehaven","ST_MARTINS","865000.00","4","2","true","true","AVAILABLE","Local","Buy","Bungalow","-2.5674329","49.4357589"
"37","ST_PETER_PORT","3200000.00","5","4","true","true","AVAILABLE","Open","Buy","House","-2.5387719","49.4416220"
"Angelic Court","ST_MARTINS","269000.00",,,"true",,"AVAILABLE","Local","Buy","Apartment","-2.5543738","49.4287107"
"Cliffville","ST_PETER_PORT","475000.00",,,"true",,"AVAILABLE","Local","Buy","Terraced","-2.5425081","49.4524839"
"Mirage","ST_SAMPSON","750000.00","4","2","true","true","AVAILABLE","Local","Buy","House","-2.5369600","49.4831659"
"Les Residences","CASTEL","845000.00","2","2","true","true","AVAILABLE","Local","Buy","Apartment","-2.5881642","49.4804855"
"3 Clifton Crest","ST_PETER_PORT","975000.00","2","2","true",,"AVAILABLE","Local","Buy","Terraced","-2.5392250","49.4535108"
"Charel","ST_SAMPSON","860000.00","4","3","true","true","AVAILABLE","Local","Buy","House","-2.5493250","49.4750767"
"Les Pres","ST_PETERS",,"6","4","true","true","AVAILABLE","Local","Buy","Cottage","-2.6296381","49.4353029"
"Ground Floor Apartment","ST_MARTINS","595000.00","2","1","true",,"AVAILABLE","Local","Buy","Apartment","-2.5466620","49.4407464"
"5, Westbourne Crescent","ST_PETER_PORT","545000.00","3","1","true",,"AVAILABLE","Local","Buy","House","-2.5474489","49.4587799"
"Hautes Espoires","ST_SAMPSON","815000.00",,,"true","true","AVAILABLE","Local","Buy","Cottage","-2.5380516","49.4841454"
"Whitborne Cottage","ST_PETER_PORT","1025000.00","4","4","true","true","AVAILABLE","Local","Buy","House","-2.5430649","49.4401938"
"Le Courtillon","ST_PETER_PORT","995000.00","3","3","true",,"AVAILABLE","Local","Buy","Georgian","-2.5328719","49.4615378"
"Ocean View","TORTEVAL","3200000.00","4","5","true","true","AVAILABLE","Local","Buy","House","-2.6561569","49.4349070"
"Les Menages","ST_SAVIOUR","945000.00",,,"true",,"AVAILABLE","Local","Buy","Cottage","-2.6356483","49.4582970"
"Les Fontaines Farm","TORTEVAL","2000000.00","5","3",,,"AVAILABLE","Local","Buy","House","-2.6585624","49.4311038"
"2 Treetops","ST_SAMPSON","430000.00","1","1","true",,"AVAILABLE","Local","Buy","Terraced","-2.5307400","49.4834290"
"New House","ST_SAMPSON","725000.00","5","1","true",,"AVAILABLE","Local","Buy","House","-2.5203700","49.4814738"
"Mont Havelet Cottage","ST_PETER_PORT","1950000.00","4","4","true","true","AVAILABLE","Open","Buy","House","-2.5399082","49.4567789"
"The Laurels","VALE","899000.00","4","2","true",,"AVAILABLE","Open","Buy","House","-2.5188679","49.4858090"
"Le Courtil Fontaine","ST_PETERS","1825000.00","6","3","true","true","AVAILABLE","Local","Buy","House","-2.6447530","49.4557700"
"Northumberland Cottage","VALE","695000.00","4","3","true",,"AVAILABLE","Local","Buy","Semi-Detached","-2.5086040","49.4970288"
"Justin","VALE","599000.00",,,"true",,"AVAILABLE","Local","Buy","Bungalow","-2.5616873","49.4736720"
"The Grove","ST_PETER_PORT","495000.00","3","1","true",,"AVAILABLE","Local","Buy","House","-2.5459010","49.4585020"
"Aldersgate","CASTEL","720000.00",,,"true",,"AVAILABLE","Local","Buy","House","-2.5797683","49.4833022"
"Duval","ST_MARTINS","1295000.00","4","2","true",,"AVAILABLE","Local","Buy","House","-2.5550280","49.4449230"
"Elysium","ST_SAMPSON","545000.00","3","2","true",,"AVAILABLE","Local","Buy","Terraced","-2.5208699","49.4814549"
"La Capella","ST_PETER_PORT","1650000.00","4","2","true",,"AVAILABLE","Open","Buy","House","-2.5369299","49.4387668"
"Cartref","ST_SAMPSON","439000.00","2","1","true",,"AVAILABLE","Local","Buy","Semi-Detached","-2.5433020","49.4906780"
"Bordeaux Development Site","VALE",,"3","2",,,"AVAILABLE","Local","Buy","House","-2.5076350","49.4913858"
"Parterre View","ST_SAVIOUR","899000.00","3","2","true","true","AVAILABLE","Local","Buy","House","-2.6289970","49.4548868"
"Ville Es Pies","VALE","939000.00","8","3","true","true","AVAILABLE","Local","Buy","House","-2.5161340","49.4908538"
"Railton House","ST_PETER_PORT","569000.00","4","2","true",,"AVAILABLE","Local","Buy","Terraced","-2.5365829","49.4598859"
"Camellia House","ST_PETER_PORT","715000.00","3","2","true",,"AVAILABLE","Local","Buy","House","-2.5344299","49.4619840"
"Les Papillons","CASTEL","895000.00","4","2",,,"AVAILABLE","Local","Buy","House","-2.5866199","49.4775800"
"Cour Du Bordier","ST_PETER_PORT","265000.00",,,"true",,"AVAILABLE","Local","Buy","Apartment","-2.5390761","49.4523522"
"4 Mansell Court","ST_PETER_PORT","215000.00",,,"true","true","AVAILABLE","Local","Buy","Apartment","-2.5406615","49.4524667"
"Lavande","ST_PETER_PORT","699000.00","3","2","true",,"AVAILABLE","Local","Buy","House","-2.5345282","49.4621690"
"Les Landes Du Bas","CASTEL","875000.00","3","2","true","true","AVAILABLE","Local","Buy","Bungalow","-2.5665920","49.4666500"
"Alanya","CASTEL","895000.00","4","2","true","true","AVAILABLE","Local","Buy","House","-2.5771000","49.4748650"
"Rushford","ST_SAMPSON","1395000.00","5","3","true",,"AVAILABLE","Local","Buy","House","-2.5566439","49.4783139"
"4","ST_PETER_PORT","849500.00","4","2","true",,"AVAILABLE","Local","Buy","Semi-Detached","-2.5451299","49.4661320"
"La Rocque","ST_MARTINS","4500000.00","5","5",,,"AVAILABLE","Local","Buy","House","-2.5366590","49.4297528"
"Chant Du Vent","VALE","795000.00","4","2","true","true","AVAILABLE","Local","Buy","House","-2.5253540","49.4992068"
"Damouettes Lodge","ST_PETER_PORT","2850000.00","4","3","true",,"AVAILABLE","Open","Buy","Terraced","-2.5428950","49.4412880"
"Le Sycomore","ST_MARTINS","459000.00","2","1",,,"AVAILABLE","Local","Buy","Apartment","-2.5466731","49.4424040"
"Pre Du Vivier","SARK","270000.00","4","1","true",,"AVAILABLE","Local","Buy","House","-2.3675239","49.4382724"
"Ch'Lisier","ST_SAMPSON","675000.00","4","2","true",,"AVAILABLE","Local","Buy","House","-2.5224435","49.4797251"
"St. James's Place","ST_PETER_PORT","1795000.00","3","3","true",,"AVAILABLE","Local","Buy","House","-2.5447799","49.4574020"
"Kookaburra","VALE","515000.00","4","1","true",,"AVAILABLE","Local","Buy","House","-2.5158600","49.4840598"
"New Beginnings","ST_PETER_PORT","369950.00","2","1","true",,"AVAILABLE","Local","Buy","Warehouse","-2.5532400","49.4549000"
"3","VALE","450000.00","2","2","true",,"AVAILABLE","Local","Buy","House","-2.5214628","49.4887159"
"Stratton House","ST_PETER_PORT","550000.00","3","1","true","true","AVAILABLE","Local","Buy","Terraced","-2.5358320","49.4606319"
"Kaduna","ST_SAVIOUR","550000.00","3","1","true",,"AVAILABLE","Local","Buy","Bungalow","-2.6281300","49.4625890"
"La Maison De Haut","CASTEL","1150000.00","4","1","true","true","AVAILABLE","Local","Buy","Farm","-2.5981120","49.4578849"
"Kudoya","ST_MARTINS","1125000.00","6","3","true","true","AVAILABLE","Local","Buy","House","-2.5421038","49.4304138"
"Rozel","ST_SAVIOUR","695000.00","3","1","true","true","AVAILABLE","Local","Buy","Cottage","-2.6335674","49.4571550"
"Lynton","ST_SAMPSON","699000.00","3","1","true",,"AVAILABLE","Local","Buy","Bungalow","-2.5315202","49.4836389"
"Le Villocq","ST_SAMPSON","1450000.00","4","3","true",,"AVAILABLE","Open","Buy","Terraced","-2.5309827","49.4758420"
"Whincroft Cottage","ST_ANDREW","990000.00",,,"true",,"AVAILABLE","Local","Buy","House","-2.5738089","49.4522570"
"La Cachette","ST_PETER_PORT","659000.00","2","1","true","true","AVAILABLE","Local","Buy","Bungalow","-2.5426294","49.4570154"
"La Plaquiere","CASTEL","1300000.00","3","2","true",,"AVAILABLE","Local","Buy","House","-2.5901640","49.4776032"
"Leander","ST_SAMPSON","749000.00","3","2","true","true","AVAILABLE","Local","Buy","House","-2.5347149","49.4835769"
"The Cwtch","ST_PETER_PORT","499000.00","2","1","true","true","AVAILABLE","Local","Buy","House","-2.5405920","49.4682778"
"Edgeborough House","ST_PETER_PORT","1650000.00","3","2","true",,"AVAILABLE","Open","Buy","House","-2.5475089","49.4556048"
"Westbury Villa","VALE","625000.00","2","1","true",,"AVAILABLE","Local","Buy","House","-2.5242040","49.4870268"
"Longree House","VALE","595000.00","3","2","true",,"AVAILABLE","Local","Buy","House","-2.5146000","49.4839800"
"Clos De Chene Development","ST_PETER_PORT","1800000.00","3","1","true",,"AVAILABLE","Local","Buy","House","-2.5363600","49.4639060"
"Flat 2","ST_PETER_PORT","1350000.00","2","2","true","true","AVAILABLE","Open","Buy","Apartment","-2.5484640","49.4559690"
"La Turquie","VALE","965000.00",,,"true","true","AVAILABLE","Local","Buy","Semi-Detached","-2.5077047","49.4946907"
"Unit 4 - Clifton Crest","ST_PETER_PORT","995000.00","2","2","true",,"AVAILABLE","Local","Buy","Terraced","-2.5392250","49.4535108"
"1 Clifton Crest","ST_PETER_PORT","995000.00","2","2","true",,"AVAILABLE","Local","Buy","Terraced","-2.5392250","49.4535108"
"Marbelle House","ST_PETER_PORT","695000.00","7","3","true",,"AVAILABLE","Local","Buy","Semi-Detached","-2.5466060","49.4581820"
"Sercq","ST_PETER_PORT","465000.00","3","1","true",,"AVAILABLE","Local","Buy","Terraced","-2.5419820","49.4525774"
"Sancerre","ST_PETER_PORT","720000.00","4","2","true",,"AVAILABLE","Local","Buy","House","-2.5527650","49.4555318"
"St Gilgen","ST_PETER_PORT","645000.00","3","2","true","true","AVAILABLE","Local","Buy","Bungalow","-2.5491510","49.4665540"
"Linden Grove","ST_SAMPSON","500000.00","2","1","true",,"AVAILABLE","Local","Buy","Apartment","-2.5227900","49.4841668"
"Pleiades","CASTEL","795000.00","3","1","true",,"AVAILABLE","Local","Buy","House","-2.5772590","49.4696640"
"Grange Hill","ST_PETER_PORT","695000.00","4","2","true",,"AVAILABLE","Open","Buy","Apartment","-2.5361790","49.4566000"
"5 Les Yvelins","ST_PETERS","1295000.00","3","2","true",,"AVAILABLE","Local","Buy","House","-2.6330089","49.4375993"
"Le Jardin D'Amour","FOREST","1050000.00","3","2","true",,"AVAILABLE","Local","Buy","House","-2.6053250","49.4245439"
"Les Rocquettes","SARK","425000.00","3","2","true",,"AVAILABLE","Open","Buy","Cottage","-2.3664233","49.4297698"
"Makunudu","VALE","1650000.00","5","3","true","true","AVAILABLE","Local","Buy","House","-2.5741450","49.4839070"
"Brock Cottage","ST_SAMPSON","675000.00","4","2","true",,"AVAILABLE","Local","Buy","Cottage","-2.5314090","49.4825950"
"Vue Des Isles","ST_PETER_PORT","265000.00","1","1",,,"AVAILABLE","Local","Buy","Apartment","-2.5359310","49.4603960"
"Elska","VALE","595000.00",,,"true","true","AVAILABLE","Local","Buy","Cottage","-2.5740034","49.4860346"
"Tudor Apartments","ST_PETER_PORT","825000.00","2","2",,,"AVAILABLE","Open","Buy","Apartment","-2.5385610","49.4533028"
"La Trigale","VALE","795000.00","3","2","true","true","AVAILABLE","Local","Buy","House","-2.5690610","49.4857480"
"La Beaverette","ST_MARTINS","720000.00","3","1","true",,"AVAILABLE","Local","Buy","House","-2.5402200","49.4322110"
"Le Coin","ST_PETER_PORT","1295000.00","3","2",,"true","AVAILABLE","Open","Buy","Terraced","-2.5396999","49.4494108"
"8","ST_PETER_PORT","390000.00","2","1","true",,"AVAILABLE","Local","Buy","Semi-Detached","-2.5372029","49.4568129"
"Les Grais","ST_PETERS","4350000.00","5","4","true","true","AVAILABLE","Open","Buy","House","-2.6332119","49.4362179"
"Little Saunton","ST_PETER_PORT","525000.00","3","2","true",,"AVAILABLE","Local","Buy","House","-2.5397330","49.4558268"
"L'Hirondelle","ST_MARTINS","875000.00","4","1","true",,"AVAILABLE","Open","Buy","House","-2.5427640","49.4313058"
"10","ST_SAVIOUR","795000.00","4","2","true",,"AVAILABLE","Local","Buy","Bungalow","-2.6281080","49.4554970"
"2, Clifton Terrace","ST_PETER_PORT","1095000.00","3","2","true",,"AVAILABLE","Local","Buy","House","-2.5349170","49.4611628"
"Jubilee","VALE","760000.00","5","2","true",,"AVAILABLE","Local","Buy","House","-2.5329399","49.4874640"
"La Mouette","ST_PETER_PORT","550000.00","4","1","true","true","AVAILABLE","Local","Buy","House","-2.5555240","49.4612399"
"La Battue","ST_PETER_PORT","1350000.00","5","3","true","true","AVAILABLE","Open","Buy","House","-2.5426769","49.4592250"
"Lothbrok","ST_SAMPSON","635000.00","3","2","true","true","AVAILABLE","Local","Buy","House","-2.5230640","49.4827370"
"30","ST_PETER_PORT","550000.00",,,"true",,"AVAILABLE","Local","Buy","Apartment","-2.5382072","49.4527793"
"Les Residences","CASTEL","725000.00","2","2",,"true","AVAILABLE","Local","Buy","Apartment","-2.5879720","49.4803760"
"Beaumont Cottage","ST_ANDREW","1285000.00","4","3","true","true","AVAILABLE","Local","Buy","Cottage","-2.5788890","49.4513120"
"Vue De Vermerette","ST_PETER_PORT","635000.00","2","2",,,"AVAILABLE","Local","Buy","Apartment","-2.5365389","49.4663438"
"Pre De La Ville","SARK","150000.00","3","2","true",,"AVAILABLE","Open","Buy","Bungalow","-2.3561456","49.4353048"
"La Velleresse","ST_PETER_PORT","2950000.00","4","3","true",,"AVAILABLE","Open","Buy","House","-2.5372349","49.4377629"
"L'Abri","ST_PETER_PORT","975000.00","4","3","true",,"AVAILABLE","Local","Buy","House","-2.5452880","49.4598170"
"Spring House","ST_PETER_PORT","320000.00","1","1",,,"AVAILABLE","Local","Buy","Apartment","-2.5416021","49.4544450"
"Tanderra","ST_SAMPSON","1145000.00","5","4","true","true","AVAILABLE","Local","Buy","House","-2.5498718","49.4839980"
"1 Providence Place","ST_PETER_PORT","1575000.00","4","2","true",,"AVAILABLE","Open","Buy","House","-2.5503239","49.4468690"
"Mont Val","ST_PETERS","2500000.00","6","2",,,"AVAILABLE","Local","Buy","House","-2.6424070","49.4388170"
"Garden Flat","ST_PETER_PORT","340000.00","1","1","true",,"AVAILABLE","Local","Buy","Flat","-2.5507474","49.4618766"
"Rose Cottage","ST_ANDREW","945000.00","4","2","true","true","AVAILABLE","Local","Buy","Cottage","-2.5701120","49.4400010"
"Saming","ST_SAMPSON","595000.00","3","1","true",,"AVAILABLE","Local","Buy","House","-2.5292886","49.4752993"
"Rozel Villa","ST_PETER_PORT","950000.00","4","3","true",,"AVAILABLE","Local","Buy","Semi-Detached","-2.5512031","49.4627498"
"Mullbury Cottage","ST_MARTINS","1125000.00","5","2","true",,"AVAILABLE","Local","Buy","House","-2.5778930","49.4339390"
"Orion House","VALE","1595000.00",,,,,"AVAILABLE",,"Buy","House","-2.5197468","49.4836110"
"Brighton","CASTEL","555000.00","2","1","true",,"AVAILABLE","Local","Buy","Bungalow","-2.5888925","49.4791674"
"Le Petit Cornichon","ST_PETER_PORT","645000.00",,,"true",,"AVAILABLE","Local","Buy","Bungalow","-2.5512207","49.4482167"
"La Rocquette","CASTEL","895000.00","5","3","true","true","AVAILABLE","Local","Buy","Cottage","-2.6012629","49.4669601"
"2 Wellington Close","ST_PETER_PORT","875000.00","3","2","true",,"AVAILABLE","Local","Buy","House","-2.5539800","49.4574307"
"Mont Altier Apartments","ST_PETER_PORT","495000.00","2","1","true",,"AVAILABLE","Local","Buy","Apartment","-2.5438290","49.4539100"
"Apt 8","ST_PETER_PORT","495000.00","1","1",,,"AVAILABLE","Local","Buy","Apartment","-2.5359690","49.4674528"
"Kum Ba Ya","CASTEL","649000.00","3","1","true",,"AVAILABLE","Local","Buy","Bungalow","-2.6002690","49.4660798"
"La Bruyere","SARK","210000.00","5","3","true",,"AVAILABLE","Open","Buy","Bungalow","-2.3511956","49.4332368"
"2, La Maison Rozel","ST_PETER_PORT","925000.00","3","3","true",,"AVAILABLE","Local","Buy","Semi-Detached","-2.5512353","49.4627079"
"Ireckon","ST_PETERS","995000.00","4","1","true",,"AVAILABLE","Local","Buy","Bungalow","-2.6436480","49.4544039"
"Osborne","ST_MARTINS","1450000.00","4","3",,,"AVAILABLE","Local","Buy","House","-2.5631689","49.4355440"
"Kushti","ST_SAMPSON","680000.00","3","2","true","true","AVAILABLE","Local","Buy","Semi-Detached","-2.5416379","49.4892320"
"Clos De Dixcart","SARK","2500000.00",,,"true","true","AVAILABLE","Open","Buy","Terraced","-2.3624953","49.4297268"
"Les Trois Cornieres","CASTEL","1450000.00","4","3","true","true","AVAILABLE","Open","Buy","House","-2.5888719","49.4767270"
"Ardleigh","ST_MARTINS","495000.00","3","1","true",,"AVAILABLE","Local","Buy","Semi-Detached","-2.5545027","49.4451189"
"Beaubush","ST_PETER_PORT","4250000.00","3","3","true",,"AVAILABLE","Open","Buy","Bungalow","-2.5352310","49.4454289"
"Eurita Apartments","CASTEL","1050000.00",,,"true",,"AVAILABLE","Local","Buy","Semi-Detached","-2.5774770","49.4802858"
"Laverstock Court","ST_PETER_PORT","375000.00","1","1","true",,"AVAILABLE","Local","Buy","Apartment","-2.5380916","49.4543820"
"Eaton Cottage","VALE","545000.00","3","1","true",,"AVAILABLE","Local","Buy","Semi-Detached","-2.5149249","49.5007749"
"Lanesra","CASTEL","795000.00",,,"true","true","AVAILABLE","Local","Buy","House","-2.5843831","49.4853297"
"Victoria","ST_MARTINS","495000.00","2","1","true",,"AVAILABLE","Local","Buy","Terraced","-2.5545760","49.4455128"
"Flat 1","ST_PETER_PORT","350000.00","2","1",,,"AVAILABLE","Local","Buy","Apartment","-2.5413210","49.4527508"
"Manholme","ST_SAMPSON","725000.00","3","1","true","true","AVAILABLE","Local","Buy","Bungalow","-2.5541361","49.4846627"
"Le Guern","ST_SAMPSON","695000.00","3","2","true",,"AVAILABLE","Local","Buy","Semi-Detached","-2.5297352","49.4814642"
"Rose Cottage","ST_SAVIOUR","735000.00","3","2","true","true","AVAILABLE","Local","Buy","Cottage","-2.6371479","49.4578945"
"Valkyrie","VALE","685000.00","3","1","true","true","AVAILABLE","Local","Buy","Bungalow","-2.5138815","49.5011061"
"La Moulliere","ST_SAMPSON","679000.00","3","1","true",,"AVAILABLE","Local","Buy","House","-2.5517816","49.4829376"
"Ciroc","ST_SAMPSON","775000.00","4","2","true","true","AVAILABLE","Local","Buy","House","-2.5347300","49.4738260"
"Autumn Cottage","ST_PETER_PORT","765000.00","3","1","true","true","AVAILABLE","Local","Buy","House","-2.5494949","49.4584440"
"Sharmel","ST_PETER_PORT","475000.00","2","1",,,"AVAILABLE","Local","Buy","Semi-Detached","-2.5387439","49.4649360"
"Roc Salt","VALE",,,,"true",,"AVAILABLE","Local","Buy","Restaurant","-2.5420813","49.5038185"
"Aphyllantes","ST_ANDREW","710000.00",,,"true","true","AVAILABLE","Local","Buy","Bungalow","-2.5761430","49.4543500"
"4 Clos Des Fontaines","ST_MARTINS","925000.00","4","2","true","true","AVAILABLE","Local","Buy","House","-2.5695980","49.4316888"
"Lillington","ST_PETER_PORT","545000.00","3","1","true",,"AVAILABLE","Local","Buy","Terraced","-2.5384636","49.4694340"
"Montana","ST_MARTINS","945000.00",,,"true","true","AVAILABLE","Local","Buy","House","-2.5502498","49.4431230"
"Aquae Sulis","VALE","625000.00","3","1","true",,"AVAILABLE","Local","Buy","House","-2.5163750","49.4990518"
"Chefoo","ST_MARTINS","495000.00","3","1","true",,"AVAILABLE","Local","Buy","Bungalow","-2.5420780","49.4308418"
"Anfree","ST_PETER_PORT","4750000.00","3","3","true",,"AVAILABLE","Open","Buy","Apartment","-2.5346652","49.4595300"
"Kweto","ST_SAMPSON","445000.00","2","1","true",,"AVAILABLE","Local","Buy","Apartment","-2.5306538","49.4747940"
"No 1","CASTEL","780000.00","3","2","true",,"AVAILABLE","Local","Buy","House","-2.5885440","49.4781570"
"Albion Place","ST_SAMPSON","795000.00","3","2","true",,"AVAILABLE","Local","Buy","House","-2.5382989","49.4795439"
"Aux Cordiers","ST_PETER_PORT","2250000.00","4","3","true",,"AVAILABLE","Open","Buy","House","-2.5440640","49.4550709"
"La Flaquaie","ST_SAVIOUR","1095000.00","5","2","true","true","AVAILABLE","Local","Buy","House","-2.6313040","49.4512738"
"Mon Desir","ST_PETER_PORT","520000.00","2","1","true",,"AVAILABLE","Local","Buy","House","-2.5424150","49.4645090"
"La Rocque","TORTEVAL","2295000.00","5","4","true",,"AVAILABLE","Local","Buy","House","-2.6560910","49.4321819"
"Le Touzel","VALE","1465000.00","4","3","true",,"AVAILABLE","Local","Buy","House","-2.5168621","49.5015766"
"Esperance","ST_SAVIOUR","695000.00",,,"true","true","AVAILABLE","Local","Buy","Cottage","-2.6169449","49.4407021"
"10","VALE","405000.00","1","1","true",,"AVAILABLE","Local","Buy","House","-2.5214628","49.4887159"
"9","VALE","395000.00","1","1","true",,"AVAILABLE","Local","Buy","House","-2.5214628","49.4887159"
"Les Merisiers","SARK","765000.00","3","2","true",,"AVAILABLE","Open","Buy","House","-2.3575176","49.4333119"
"9, Kings Court","ST_PETER_PORT","479995.00","2","1",,,"AVAILABLE","Local","Buy","Flat","-2.5537030","49.4468858"
"Per Ardua","VALE","949500.00",,,"true",,"AVAILABLE","Local","Buy","Bungalow","-2.5740609","49.4867275"
"Le Morel","ST_MARTINS","1200000.00","4","1","true","true","AVAILABLE","Local","Buy","House","-2.5683679","49.4316990"
"Champlain","ST_PETER_PORT","835000.00","3","2","true",,"AVAILABLE","Local","Buy","House","-2.5505007","49.4483693"
"Le Feugre Cobo New Build","CASTEL","1250000.00","3","3","true","true","AVAILABLE","Local","Buy","Bungalow","-2.5869599","49.4768698"
"Vue Du Godfrey","ST_PETER_PORT","695000.00","3","3","true",,"AVAILABLE","Local","Buy","Apartment","-2.5361039","49.4678077"
"Sintra","VALE","425000.00","2","1","true","true","AVAILABLE","Local","Buy","Bungalow","-2.5709352","49.4840468"
"Hanois House","ST_PETER_PORT","825000.00","3","2",,,"AVAILABLE","Local","Buy","Apartment","-2.5346099","49.4592839"
"Fernleigh","ST_SAMPSON","685000.00","3","1","true",,"AVAILABLE","Local","Buy","Bungalow","-2.5582889","49.4793389"
"Les Gemeaux","ST_PETER_PORT","595000.00","3","2","true","true","AVAILABLE","Local","Buy","House","-2.5426590","49.4537379"
"Balkuling","ST_PETER_PORT","510000.00","4","1","true",,"AVAILABLE","Local","Buy","Bungalow","-2.5429583","49.4401955"
"Brompton Place","ST_PETER_PORT","440000.00","4","2","true",,"AVAILABLE","Local","Buy","Apartment","-2.5354649","49.4633170"
"Mariposa","FOREST","780000.00","3","1","true","true","AVAILABLE","Local","Buy","House","-2.6062593","49.4304905"
"Baie Lazare","ST_SAVIOUR","1095000.00","4","2","true","true","AVAILABLE","Local","Buy","House","-2.6314250","49.4608259"
"Elland Place","ST_SAMPSON","435000.00","1","1","true",,"AVAILABLE","Local","Buy","Bungalow","-2.5219490","49.4831458"
"Inveraray","VALE","895000.00","4","2","true",,"AVAILABLE","Local","Buy","Bungalow","-2.5118298","49.4960590"
"Les Buttieres","CASTEL","1250000.00","4","3","true",,"AVAILABLE","Local","Buy","House","-2.5927777","49.4751278"
"Calais Farm House","ST_MARTINS","595000.00",,,"true",,"AVAILABLE","Local","Buy","House","-2.5382182","49.4325878"
"Trevellion","ST_SAMPSON","675000.00","2","1","true","true","AVAILABLE","Local","Buy","Bungalow","-2.5312600","49.4836200"
"Mae House","ST_MARTINS","795000.00","4","3","true",,"AVAILABLE","Local","Buy","House","-2.5488200","49.4428199"
"South Flat","ST_PETER_PORT","515000.00","2","1",,,"AVAILABLE","Local","Buy","Semi-Detached","-2.5542783","49.4505016"
"L'Abreuvoir","ST_SAMPSON","675000.00","3","1","true",,"AVAILABLE","Local","Buy","House","-2.5244879","49.4832400"
"La Croisie","FOREST","995000.00","4","1","true",,"AVAILABLE","Local","Buy","Cottage","-2.5896623","49.4294238"
"Estate House","ST_PETER_PORT",,,,"true",,"AVAILABLE","Local","Buy","Office","-2.5390443","49.4573077"
"Les Eperons","CASTEL","360000.00","1","1","true",,"AVAILABLE","Local","Buy","Semi-Detached","-2.5850544","49.4770613"
"No.7 Sycamore Avenue","ST_SAMPSON","795000.00","3","3","true",,"AVAILABLE","Local","Buy","Warehouse","-2.5262959","49.4763260"
"No.4 Sycamore Avenue","ST_SAMPSON","845000.00","3","3","true",,"AVAILABLE","Local","Buy","Warehouse","-2.5264730","49.4763919"
"Les Roches De Faye","VALE","1450000.00","3","2","true",,"AVAILABLE","Open","Buy","Bungalow","-2.5526520","49.4936220"
"La Laiterie","ST_MARTINS","545000.00","3","1","true",,"AVAILABLE","Local","Buy","Cottage","-2.5443894","49.4387969"
"10, Infinity Gardens","ST_PETER_PORT","765000.00","4","2","true",,"AVAILABLE","Local","Buy","Terraced","-2.5497136","49.4665557"
"La Porte Au Nord","ST_SAMPSON","635000.00","3","2","true","true","AVAILABLE","Local","Buy","House","-2.5231800","49.4827670"
"La Maison Des Ours","ST_PETER_PORT","540000.00",,,"true",,"AVAILABLE","Local","Buy","Terraced","-2.5354614","49.4626002"
"Les Blancs Bois","CASTEL","675000.00","2","2","true","true","AVAILABLE","Local","Buy","Apartment","-2.5723780","49.4734580"
"L'Etoile Du Matin","CASTEL","2900000.00","4","3","true",,"AVAILABLE","Open","Buy","House","-2.6218520","49.4573520"
"Aqir","CASTEL","675000.00","2","1","true",,"AVAILABLE","Local","Buy","Bungalow","-2.5864277","49.4775588"
"Frenchay House","ST_PETER_PORT","1695000.00","6","5","true","true","AVAILABLE","Local","Buy","Georgian","-2.5375559","49.4516879"
"The Beach View","VALE","499000.00","2","1","true",,"AVAILABLE","Local","Buy","Semi-Detached","-2.5517400","49.4933740"
"Beauregard","ST_SAMPSON","895000.00","3","3","true","true","AVAILABLE","Local","Buy","House","-2.5573054","49.4807391"
"Roustel House","ST_PETER_PORT","625000.00","2","2",,,"AVAILABLE","Local","Buy","Apartment","-2.5347390","49.4594730"
"Demie Shard","ST_SAMPSON","1100000.00",,,"true",,"AVAILABLE","Local","Buy","House","-2.5230910","49.4831160"
"Hanois House","ST_PETER_PORT","650000.00","2","2",,,"AVAILABLE","Local","Buy","Apartment","-2.5349110","49.4595429"
"Roustel House","ST_PETER_PORT","650000.00","2","2",,,"AVAILABLE","Local","Buy","Apartment","-2.5347390","49.4594730"
"La Cachette","ST_SAMPSON","445000.00","2","1","true",,"AVAILABLE","Local","Buy","Apartment","-2.5306350","49.4748290"
"La Porte Au Nord","ST_SAMPSON","1295000.00","5","3",,"true","AVAILABLE","Local","Buy","House","-2.5551870","49.4737999"
"Apartment 4 Ebenezer Church","ST_PETER_PORT","450000.00","1","1","true",,"AVAILABLE","Local","Buy","Apartment","-2.5470932","49.4567610"
"Apartment 1","ST_PETER_PORT","435000.00","1","1","true",,"AVAILABLE","Local","Buy","Apartment","-2.5470454","49.4567610"
"Apartment 8","ST_PETER_PORT","440000.00","1","1","true",,"AVAILABLE","Local","Buy","Apartment","-2.5471210","49.4567610"
"Apartment 10","ST_PETER_PORT","450000.00","1","1","true",,"AVAILABLE","Local","Buy","Apartment","-2.5471210","49.4567881"
"Notre Reve","VALE","695000.00","3","1","true","true","AVAILABLE","Local","Buy","House","-2.5216639","49.4950328"
"Le Coquibus","ST_PETER_PORT","645000.00","3","1","true","true","AVAILABLE","Local","Buy","Bungalow","-2.5572849","49.4640521"
"Pinoso","VALE","675000.00","4","1",,,"AVAILABLE","Local","Buy","House","-2.5223469","49.4875838"
"Batteleur","VALE",,"7","7","true","true","AVAILABLE","Open","Buy","Terraced","-2.5266190","49.4962420"
"Petite Bruyere","ST_PETERS","1620000.00",,,"true","true","AVAILABLE","Open","Buy","Bungalow","-2.6488073","49.4295192"
"Old Mill New Development","ST_MARTINS",,"6","5","true","true","AVAILABLE","Open","Buy","Terraced","-2.5524390","49.4452398"
"Mooroopna","ST_PETER_PORT","430000.00","2","1",,,"AVAILABLE","Local","Buy","Terraced","-2.5360990","49.4607120"
"Two Parking Spaces","ST_PETER_PORT","80000.00",,,,,"AVAILABLE","Open","Buy","Terraced","-2.5347650","49.4594919"
"Granville","ST_MARTINS","845000.00","3","3","true","true","AVAILABLE","Local","Buy","House","-2.5737839","49.4348778"
"Les Quatre Acres","CASTEL","2500000.00",,,"true","true","AVAILABLE","Open","Buy","House","-2.6087218","49.4584926"
"Les Fontenelles Mews","ST_PETER_PORT","1250000.00","4","4","true",,"AVAILABLE","Open","Buy","House","-2.5473309","49.4548270"
"Beckingham","ST_PETER_PORT","640000.00","6","2","true",,"AVAILABLE","Local","Buy","Terraced","-2.5419079","49.4518648"
"Homelea","ST_PETER_PORT","470000.00","3","1","true",,"AVAILABLE","Local","Buy","House","-2.5453260","49.4529390"
"Calais Cottage Lodge","ST_MARTINS","1695000.00","5","4",,,"AVAILABLE","Open","Buy","House","-2.5404650","49.4345039"
"Les Ruisseaux","CASTEL","835000.00",,,"true","true","AVAILABLE","Local","Buy","Semi-Detached","-2.6017340","49.4725737"
"2 Clos Des Pommiers","VALE","650000.00","2","2","true",,"AVAILABLE","Local","Buy","House","-2.5278149","49.4887688"
"Driftwood","ST_PETER_PORT",,"3","3","true","true","AVAILABLE","Open","Buy","Bungalow","-2.5360870","49.4428600"
"MacQuarie","ST_PETER_PORT","515000.00",,,"true",,"AVAILABLE","Local","Buy","Terraced","-2.5613594","49.4597284"
"Units 10 & 11","ST_PETER_PORT","870000.00","3","2","true",,"AVAILABLE","Local","Buy","House","-2.5464310","49.4568439"
"Units 2","ST_PETER_PORT","1095000.00","3","3","true",,"AVAILABLE","Local","Buy","House","-2.5464470","49.4567830"
"Folie Maison","ST_SAMPSON","510000.00","2","1","true",,"AVAILABLE","Local","Buy","Terraced","-2.5345170","49.4726629"
"Tuskamore","ST_SAMPSON","750000.00","4","1",,"true","AVAILABLE","Local","Buy","Bungalow","-2.5397900","49.4868219"
"Queen's View","ST_PETER_PORT","3400000.00","5","5","true","true","AVAILABLE","Open","Buy","House","-2.5496840","49.4527939"
"Le Marron Flats","ST_PETER_PORT","425000.00","2","1",,,"AVAILABLE","Local","Buy","Flat","-2.5468929","49.4690030"
"Les Blancs Bois","CASTEL","560000.00","2","1","true","true","AVAILABLE","Local","Buy","Apartment","-2.5717150","49.4736460"
"Villa Verde","ST_SAVIOUR","650000.00","3","2","true",,"AVAILABLE","Local","Buy","Bungalow","-2.6026739","49.4389698"
"Nautilus","ST_PETER_PORT","835000.00","4","2","true","true","AVAILABLE","Local","Buy","House","-2.5532620","49.4528918"
"3, College Terrace","ST_PETER_PORT","275000.00","1","1",,,"AVAILABLE","Local","Buy","Apartment","-2.5401140","49.4560970"
"Bellaâ€™S Rest","ST_SAVIOUR","1195000.00","3","2","true","true","AVAILABLE","Local","Buy","Cottage","-2.6334140","49.4581159"
"2 Round Chimney Cottages","ST_SAMPSON","435000.00","2","1","true",,"AVAILABLE","Local","Buy","Terraced","-2.5246620","49.4832869"
"The Hollies","ST_MARTINS","1495000.00","4","3","true","true","AVAILABLE","Local","Buy","House","-2.5758154","49.4327424"
"Penryn","ST_PETER_PORT","355000.00","2","1",,,"AVAILABLE","Local","Buy","Apartment","-2.5584069","49.4609310"
"One Hayward","ST_MARTINS","845000.00","3","2","true",,"AVAILABLE","Local","Buy","House","-2.5573660","49.4376210"
"Two Hayward House","ST_MARTINS","815000.00",,,"true",,"AVAILABLE","Local","Buy","House","-2.5573177","49.4375829"
"Sunhaven","VALE","625000.00","3","1","true","true","AVAILABLE","Local","Buy","Bungalow","-2.5213142","49.4949787"
"One Hayward House","ST_MARTINS","845000.00",,,"true",,"AVAILABLE","Local","Buy","House","-2.5573177","49.4375829"
"Two Hayward","ST_MARTINS","815000.00","3","2","true",,"AVAILABLE","Local","Buy","House","-2.5573180","49.4376240"
"40","ST_PETER_PORT","575000.00","2","2",,,"AVAILABLE","Local","Buy","Apartment","-2.5376261","49.4512779"
"Silver Sixpence","CASTEL","3250000.00","6","6","true",,"AVAILABLE","Local","Buy","House","-2.6091579","49.4515910"
"Les Amballes Lodge","ST_PETER_PORT","895000.00","5","2","true","true","AVAILABLE","Local","Buy","House","-2.5361614","49.4625709"
"Highbury","ST_SAVIOUR","655000.00","4","1","true",,"AVAILABLE","Local","Buy","Bungalow","-2.6334130","49.4578739"
"Jimatomfre","ST_PETER_PORT","655000.00","3","1","true","true","AVAILABLE","Local","Buy","House","-2.5569130","49.4645170"
"Les Eperons","ST_SAVIOUR","565000.00","3","2","true","true","AVAILABLE","Local","Buy","Terraced","-2.6293600","49.4565991"
"Lone Pine","CASTEL","1020000.00","3","2","true","true","AVAILABLE","Local","Buy","Bungalow","-2.5817070","49.4818070"
"Oakleigh Cottage","VALE","560000.00","3","1","true",,"AVAILABLE","Local","Buy","Cottage","-2.5661900","49.4734300"
"The Beehive","ST_PETER_PORT","575000.00","2","2",,,"AVAILABLE","Local","Buy","Apartment","-2.5581733","49.4600766"
"The Beehive","ST_PETER_PORT","525000.00","2","1",,"true","AVAILABLE","Local","Buy","Apartment","-2.5581537","49.4600452"
"Champetre","VALE","950000.00","4","2","true","true","AVAILABLE","Local","Buy","Bungalow","-2.5200279","49.4895780"
"Strawberry Tree Cottage","ST_SAMPSON","1195000.00",,,"true",,"AVAILABLE","Local","Buy","Cottage","-2.5600711","49.4827876"
"Thabani","TORTEVAL","2495000.00","5","4","true","true","AVAILABLE","Local","Buy","House","-2.6590170","49.4323339"
"Serenity","ST_MARTINS","595000.00",,,"true",,"AVAILABLE","Local","Buy","Semi-Detached","-2.5629425","49.4236136"
"Samosir","ST_SAVIOUR","1150000.00","5","2","true",,"AVAILABLE","Local","Buy","Apartment","-2.6267090","49.4424818"
"Notre Demeure","ST_PETERS","825000.00","3","2","true","true","AVAILABLE","Local","Buy","House","-2.6144110","49.4295430"
"Le Rocher","ST_SAMPSON","1050000.00",,,"true",,"AVAILABLE","Local","Buy","Cottage","-2.5655746","49.4955299"
"Bramble Lodge","VALE","745000.00",,,"true",,"AVAILABLE","Local","Buy","Cottage","-2.5359181","49.4926786"
"Les Amballes Development","ST_PETER_PORT","395000.00",,,"true",,"AVAILABLE","Local","Buy","House","-2.5361690","49.4622200"
"Kiln Cottage","ST_MARTINS","715000.00","3","1","true",,"AVAILABLE","Local","Buy","Cottage","-2.5630440","49.4318208"
"Lorne House","ST_MARTINS","795000.00","4","2","true","true","AVAILABLE","Local","Buy","Semi-Detached","-2.5579265","49.4337038"
"Kings Mills Farm","CASTEL","3100000.00","5","4","true",,"AVAILABLE","Local","Buy","Cottage","-2.6026900","49.4580800"
"Bula","ST_PETER_PORT","484000.00","2","1","true",,"AVAILABLE","Local","Buy","Terraced","-2.5420010","49.4680240"
"Carinya","ST_ANDREW","1275000.00","4","4","true","true","AVAILABLE","Local","Buy","House","-2.5772490","49.4426720"
"Westhaven","ST_PETERS","2400000.00","3","3",,,"AVAILABLE","Open","Buy","House","-2.6439020","49.4472310"
"Les Juliennes","ST_PETERS","2800000.00","5","5","true",,"AVAILABLE","Local","Buy","House","-2.6347000","49.4408730"
"Mon Desir","ST_ANDREW","865000.00",,,"true","true","AVAILABLE","Local","Buy","Bungalow","-2.5756342","49.4535221"
"Airlie Cottage","CASTEL","465000.00","1","1","true",,"AVAILABLE","Local","Buy","Bungalow","-2.5980099","49.4583190"
"La Campanella","ST_PETER_PORT","1175000.00","5","2","true",,"AVAILABLE","Local","Buy","House","-2.5553241","49.4503464"
"34","ST_PETER_PORT","875000.00","4","3","true",,"AVAILABLE","Local","Buy","House","-2.5376249","49.4526210"
"Three New Houses","ST_SAMPSON","795000.00","3","2","true",,"AVAILABLE","Local","Buy","House","-2.5246368","49.4825900"
"Candie Apartments","ST_PETER_PORT","625000.00","2","2","true","true","AVAILABLE","Local","Buy","Apartment","-2.5398738","49.4583498"
"Les Amballes Development","ST_PETER_PORT","395000.00",,,"true",,"AVAILABLE","Local","Buy","Terraced","-2.5367570","49.4633210"
"Les Amballes Lodge","ST_PETER_PORT","1195000.00","5","2","true","true","AVAILABLE","Local","Buy","Apartment","-2.5367570","49.4633210"
"13","VALE","450000.00","2","2","true",,"AVAILABLE","Local","Buy","House","-2.5214628","49.4887159"
"Shian","CASTEL","1395000.00","5","3","true",,"AVAILABLE","Local","Buy","House","-2.5786340","49.4833380"
"Telmar","VALE","595000.00","2","1","true","true","AVAILABLE","Local","Buy","Bungalow","-2.5647340","49.4752008"
"Dolphin Retreat","ST_SAMPSON","1295000.00","5","3","true","true","AVAILABLE","Local","Buy","House","-2.5672590","49.4929550"
"Northumbria","ST_SAVIOUR","750000.00","3","1","true",,"AVAILABLE","Local","Buy","Bungalow","-2.6388500","49.4558480"
"Le Hamel","ST_SAVIOUR","1395000.00",,,"true","true","AVAILABLE","Local","Buy","House","-2.6265192","49.4621625"
"Querencia","ST_PETER_PORT","665000.00","3","1","true","true","AVAILABLE","Local","Buy","House","-2.5526900","49.4639499"
"Wren Cottage","ST_PETER_PORT","475000.00",,,"true",,"AVAILABLE","Local","Buy","Cottage","-2.5363283","49.4627002"
"Vue Des Etoiles","TORTEVAL","1150000.00","5","2","true",,"AVAILABLE","Local","Buy","House","-2.6526869","49.4327430"
"Bali Hai","ST_MARTINS","1075000.00",,,"true","true","AVAILABLE","Local","Buy","Bungalow","-2.5750731","49.4327741"
"Winterfell","ST_SAMPSON","695000.00","3","1","true",,"AVAILABLE","Local","Buy","Cottage","-2.5501900","49.4811929"
"Dieu Donne","ST_MARTINS","715000.00",,,"true",,"AVAILABLE","Local","Buy","House","-2.5554279","49.4376444"
"Elchanan","ST_SAMPSON","735000.00","5","2","true",,"AVAILABLE","Local","Buy","House","-2.5274299","49.4771900"
"Unit 2","ST_PETER_PORT","290000.00",,,,,"AVAILABLE",,"Buy","Office","-2.5387105","49.4524990"
"39, La Picaterre","VALE","520000.00","3","1","true","true","AVAILABLE","Local","Buy","Terraced","-2.5737630","49.4861538"
"Chantilly","ST_SAMPSON","530000.00","4","1","true",,"AVAILABLE","Local","Buy","House","-2.5188340","49.4807980"
"St Michel","ST_MARTINS","895000.00",,,"true",,"AVAILABLE","Local","Buy","House","-2.5560103","49.4416828"
"3, College Terrace","ST_PETER_PORT","195000.00","1","1",,,"AVAILABLE","Local","Buy","Studio","-2.5400659","49.4560740"
"Sunningdale","ST_SAMPSON","1300000.00","5","3","true",,"AVAILABLE","Local","Buy","Bungalow","-2.5401310","49.4814670"
"Magpies Rest","VALE","925000.00","4","2","true",,"AVAILABLE","Local","Buy","Bungalow","-2.5377233","49.4944362"
"Le Preel House","CASTEL","1350000.00","5","4","true","true","AVAILABLE","Local","Buy","House","-2.5836310","49.4589530"
"Le Perquage","CASTEL","745000.00",,,"true","true","AVAILABLE","Local","Buy","House","-2.6032763","49.4711089"
"6","ST_SAMPSON","645000.00","3","1","true",,"AVAILABLE","Local","Buy","House","-2.5293250","49.4773428"
"2 Allanson Court","ST_SAMPSON","695000.00","2","2","true",,"AVAILABLE","Local","Buy","House","-2.5258503","49.4765251"
"Le Petit Houmet","ST_SAMPSON","750000.00","3","2","true",,"AVAILABLE","Local","Buy","House","-2.5342207","49.4732570"
"1 Allanson Court","ST_SAMPSON","715000.00","2","2","true",,"AVAILABLE","Local","Buy","Semi-Detached","-2.5258845","49.4764900"
"Block A â€“ Allanson Court â€“ Priced From Â£695","ST_SAMPSON","695000.00","2","2","true",,"AVAILABLE","Local","Buy","Warehouse","-2.5256609","49.4765459"
"18 Allanson Court","ST_SAMPSON","720000.00","2","2","true",,"AVAILABLE","Local","Buy","Semi-Detached","-2.5261741","49.4763227"
"Block G â€“ Allanson Court â€“ Priced From Â£695","ST_SAMPSON","695000.00","2","2","true",,"AVAILABLE","Local","Buy","Warehouse","-2.5256609","49.4765559"
"16 Allanson Court","ST_SAMPSON","715000.00","2","2","true",,"AVAILABLE","Local","Buy","Semi-Detached","-2.5257021","49.4766017"
"3 Allanson Court","ST_SAMPSON","715000.00","2","2","true",,"AVAILABLE","Local","Buy","Semi-Detached","-2.5257798","49.4766120"
"17 Allanson Court","ST_SAMPSON","695000.00","2","2","true",,"AVAILABLE","Local","Buy","Terraced","-2.5256645","49.4765529"
"Ma Pieche","ST_PETER_PORT","385000.00","2","1","true",,"AVAILABLE","Local","Buy","Apartment","-2.5416430","49.4531080"
"Infinity Apartments","ST_PETER_PORT","399000.00",,,"true",,"AVAILABLE","Local","Buy","Apartment","-2.5429773","49.4639589"
"Shemayne","ST_PETER_PORT","499000.00","3","1","true","true","AVAILABLE","Local","Buy","Terraced","-2.5555610","49.4629320"
"La Moye Farm","VALE","995000.00","3","1","true",,"AVAILABLE","Local","Buy","Farm","-2.5120599","49.5007360"
"Moondance","ST_SAVIOUR","745000.00","3","2","true",,"AVAILABLE","Local","Buy","House","-2.6298430","49.4564348"
"The Woodshed","ST_PETER_PORT","1195000.00","3","2","true",,"AVAILABLE","Local","Buy","House","-2.5522960","49.4612577"
"8","ST_PETER_PORT","610000.00","2","2","true","true","AVAILABLE","Local","Buy","House","-2.5396190","49.4515430"
"The Maisonette","ST_PETER_PORT","545000.00","4","1","true",,"AVAILABLE","Local","Buy","Maisonette","-2.5377139","49.4537728"
"Second Floor Flat","ST_PETER_PORT","255000.00","1","1","true",,"AVAILABLE","Local","Buy","Flat","-2.5419320","49.4542190"
"La Grande Hougue","VALE","3600000.00","5","5","true","true","AVAILABLE","Open","Buy","House","-2.5594524","49.4892200"
"Rockdale","VALE","785000.00","3","3","true",,"AVAILABLE","Local","Buy","Cottage","-2.5074499","49.4954570"
"Longshaw","ST_SAMPSON","815000.00","3","1","true","true","AVAILABLE","Local","Buy","House","-2.5305140","49.4784960"
"Mount Vernon","ST_PETER_PORT","1675000.00","6","3","true",,"AVAILABLE","Local","Buy","House","-2.5439330","49.4567138"
"Colombia","ST_MARTINS","1100000.00",,,"true","true","AVAILABLE","Local","Buy","Bungalow","-2.5629108","49.4357332"
"Arkham","ST_PETER_PORT","465000.00",,,"true","true","AVAILABLE","Local","Buy","Terraced","-2.5489036","49.4590166"
"Haut Sejour","ST_PETER_PORT","1395000.00","3","2","true",,"AVAILABLE","Local","Buy","House","-2.5499410","49.4549400"
"Woodville","ST_PETER_PORT","995000.00",,,"true","true","AVAILABLE","Local","Buy","Semi-Detached","-2.5573036","49.4589482"
"Courtil De Paul","ST_PETERS","850000.00","4","2","true",,"AVAILABLE","Local","Buy","Bungalow","-2.6363800","49.4484730"
"Sous L'Eglise","CASTEL","925000.00","3","2","true","true","AVAILABLE","Local","Buy","Bungalow","-2.5927850","49.4723290"
"Argyll","ST_PETER_PORT","875000.00","3","2","true",,"AVAILABLE","Local","Buy","Terraced","-2.5581675","49.4583461"
"Le Camptrehard De Bas","ST_ANDREW","2800000.00","5","2","true","true","AVAILABLE","Local","Buy","House","-2.5787973","49.4490843"
"Montpellier","CASTEL","1595000.00","9","4","true",,"AVAILABLE","Local","Buy","Bungalow","-2.5877849","49.4754000"
"La Salerie Inn","ST_PETER_PORT","625000.00","2","2","true",,"AVAILABLE","Local","Buy","Apartment","-2.5325850","49.4621210"
"5, Mauxmarquis Cottages","ST_ANDREW","530000.00","1","1","true","true","AVAILABLE","Local","Buy","Semi-Detached","-2.5679420","49.4468380"
"Murandel","VALE","548000.00","2","2","true",,"AVAILABLE","Local","Buy","House","-2.5213350","49.4877638"
"Dove House","FOREST","1850000.00",,,"true","true","AVAILABLE","Open","Buy","Bungalow","-2.5998427","49.4295961"
"Hus","ST_PETER_PORT","640000.00","2","1","true","true","AVAILABLE","Local","Buy","House","-2.5552321","49.4612612"
"Bowline House","ST_PETER_PORT","465000.00","1","1","true",,"AVAILABLE","Local","Buy","Apartment","-2.5358450","49.4502930"
"L'Antre","ST_PETER_PORT","795000.00","3","1","true",,"AVAILABLE","Local","Buy","House","-2.5454571","49.4586588"
"Holmleigh","ST_PETER_PORT","675000.00","6","1","true","true","AVAILABLE","Local","Buy","Semi-Detached","-2.5434890","49.4606530"
"Houmet Quenot","VALE","695000.00","2","1","true","true","AVAILABLE","Local","Buy","Semi-Detached","-2.5719916","49.4791251"
"Les Vardes House","ST_PETER_PORT",,,,,,"AVAILABLE","Local","Buy","Office","-2.5446908","49.4497690"
"Kingston","ST_SAVIOUR","749000.00",,,"true","true","AVAILABLE","Local","Buy","Bungalow","-2.6282397","49.4428462"
"Merriennes Cottage","ST_MARTINS","510000.00","1","1","true","true","AVAILABLE","Local","Buy","Cottage","-2.5573519","49.4390480"
"Pinewood","ST_PETER_PORT","895000.00","3","2","true","true","AVAILABLE","Local","Buy","House","-2.5411619","49.4575630"
"Bahay Kubo","CASTEL","765000.00","4","2","true",,"AVAILABLE","Local","Buy","House","-2.5748799","49.4686010"
"Qualia","ST_PETERS","1450000.00","4","2",,,"AVAILABLE","Local","Buy","House","-2.6460830","49.4554680"
"Les Effards","CASTEL","1250000.00","3","2","true",,"AVAILABLE","Local","Buy","House","-2.6002030","49.4670800"
"Mystique","VALE","575000.00","3","1","true",,"AVAILABLE","Local","Buy","House","-2.5217079","49.4987179"
"Maison Numero Trois","VALE","1275000.00",,,"true","true","AVAILABLE","Local","Buy","Cottage","-2.5655701","49.4726535"
"Detached House With Integral Dower","VALE",,"4","2","true",,"AVAILABLE","Local","Buy","House","-2.5145610","49.5014540"
"Kings Lodge","ST_PETER_PORT","1275000.00","4","3","true",,"AVAILABLE","Local","Buy","House","-2.5522442","49.4533503"
"48","ST_PETER_PORT","660000.00","4","2","true",,"AVAILABLE","Local","Buy","House","-2.5372290","49.4531848"
"Summerfield House","VALE","415000.00","2","1","true",,"AVAILABLE","Local","Buy","Apartment","-2.5166119","49.4866000"
"Bay House (Plot)","ST_PETERS","850000.00","5","5","true",,"AVAILABLE","Local","Buy","House","-2.6507174","49.4410683"
"Eden Cottage","ST_SAMPSON","595000.00","2","1","true",,"AVAILABLE","Local","Buy","Semi-Detached","-2.5281538","49.4759098"
"Vouvray","ST_PETER_PORT","695000.00","3","1","true","true","AVAILABLE","Local","Buy","House","-2.5434909","49.4626650"
"Le Rivage","ST_SAMPSON","525000.00","2","1","true",,"AVAILABLE","Local","Buy","House","-2.5305960","49.4744699"
"3, Auckland Terrace","ST_PETER_PORT","525000.00","3","2","true",,"AVAILABLE","Local","Buy","House","-2.5417209","49.4502828"
"A La Fin","CASTEL","550000.00","2","1","true",,"AVAILABLE","Local","Buy","House","-2.5761390","49.4788568"
"Chez Soi","ST_PETER_PORT","575000.00","3","2","true","true","AVAILABLE","Local","Buy","House","-2.5483870","49.4667869"
"Northerners Hall","ST_SAMPSON","385000.00","2","1",,,"AVAILABLE","Local","Buy","Apartment","-2.5214460","49.4835860"
"Cloughfyn","CASTEL","860000.00","3","2","true","true","AVAILABLE","Local","Buy","House","-2.6039115","49.4713105"
"St Lauren House","ST_MARTINS","665000.00","3","2","true",,"AVAILABLE","Local","Buy","House","-2.5574150","49.4389010"
"Locarno","ST_PETER_PORT","725000.00","5","4","true",,"AVAILABLE","Local","Buy","Semi-Detached","-2.5398930","49.4474768"
"Romford","VALE","669000.00","2","2","true","true","AVAILABLE","Local","Buy","House","-2.5212070","49.4865720"
"Vue Des Iles","ST_PETER_PORT","575000.00","4","4","true",,"AVAILABLE","Local","Buy","House","-2.5398839","49.4536518"
"Les Sylphides","ST_MARTINS","795000.00","3","1","true","true","AVAILABLE","Local","Buy","House","-2.5422460","49.4315860"
"Victoria House","ST_SAMPSON","560000.00","4","5","true",,"AVAILABLE","Local","Buy","House","-2.5347089","49.4728750"
"Jackmanii","ST_SAMPSON","425000.00","3","4","true",,"AVAILABLE","Local","Buy","Terraced","-2.5349390","49.4729710"
"Bridgeport Place","ST_PETER_PORT","425000.00","3","1","true",,"AVAILABLE","Local","Buy","Terraced","-2.5370300","49.4691940"
"40","ST_PETER_PORT","775000.00","3","2","true",,"AVAILABLE","Local","Buy","House","-2.5371725","49.4506178"
"Elizabeth Court","ST_MARTINS","300000.00","1","1","true",,"AVAILABLE","Local","Buy","Apartment","-2.5545140","49.4291300"
"Flat 5","ST_PETER_PORT","265000.00","1","1",,,"AVAILABLE","Local","Buy","Apartment","-2.5410164","49.4562715"
"St Annes Cottage","CASTEL","895000.00","3","2","true",,"AVAILABLE","Local","Buy","Cottage","-2.5970740","49.4596700"
"Les Rosiers","ST_PETER_PORT","849000.00","3","2","true",,"AVAILABLE","Local","Buy","House","-2.5568629","49.4596850"
"Mes Rosiers","ST_PETER_PORT","1395000.00",,,"true",,"AVAILABLE","Local","Buy","Apartment","-2.5553598","49.4639791"
"Clareville","ST_PETER_PORT","795000.00","5","2","true","true","AVAILABLE","Local","Buy","House","-2.5505840","49.4615792"
"La Rochelle Cottage","VALE","895000.00",,,"true",,"AVAILABLE","Local","Buy","Cottage","-2.5107721","49.4982425"
"3","CASTEL","865000.00","3","2","true",,"AVAILABLE","Local","Buy","House","-2.5967275","49.4656505"
"Plaisance House","ST_PETER_PORT","435000.00","2","1",,,"AVAILABLE","Local","Buy","Apartment","-2.5362083","49.4594566"
"St Clair","ST_SAMPSON","575000.00","5","2","true",,"AVAILABLE","Local","Buy","Semi-Detached","-2.5312809","49.4786118"
"La Cachette","ST_PETER_PORT","495000.00","2","1","true",,"AVAILABLE","Local","Buy","Semi-Detached","-2.5403419","49.4658330"
"Springwood House","ST_PETER_PORT","1395000.00","6","3","true","true","AVAILABLE","Local","Buy","House","-2.5393884","49.4639219"
"37","ST_SAMPSON","550000.00",,,"true",,"AVAILABLE","Local","Buy","House","-2.5690686","49.4908324"
"Hermon","VALE","925000.00","6","3","true",,"AVAILABLE","Local","Buy","House","-2.5194800","49.4903229"
"Piccolino","VALE","535000.00",,,"true",,"AVAILABLE","Local","Buy","Cottage","-2.5635433","49.4734832"
"Springfield","VALE","765000.00","4","2","true",,"AVAILABLE","Local","Buy","Semi-Detached","-2.5115259","49.4945600"
"Glenwood","CASTEL","1295000.00","5","2","true",,"AVAILABLE","Local","Buy","House","-2.5711379","49.4639420"
"Cherry Tree House","CASTEL","680000.00",,,"true","true","AVAILABLE","Local","Buy","Semi-Detached","-2.5734482","49.4576986"
"Les Blancs Bois","CASTEL","645000.00",,,"true","true","AVAILABLE","Local","Buy","Apartment","-2.5720112","49.4736568"
"Mowbray","VALE","1950000.00",,,"true","true","AVAILABLE","Open","Buy","Cottage","-2.5295998","49.4952110"
"Maison Carmel","ST_PETER_PORT","1150000.00","4","3","true",,"AVAILABLE","Open","Buy","House","-2.5451174","49.4590960"
"Val Au Vallee","ST_MARTINS","1795000.00","5","3","true","true","AVAILABLE","Open","Buy","House","-2.5757664","49.4282474"
"The Chalet","ST_SAMPSON","685000.00","4","1","true",,"AVAILABLE","Local","Buy","House","-2.5302229","49.4811618"
"Gananoque","CASTEL","1050000.00","4","2","true",,"AVAILABLE","Local","Buy","House","-2.5823958","49.4830395"
"Marina Court","ST_PETER_PORT","615000.00","2","2","true",,"AVAILABLE","Local","Buy","Apartment","-2.5340611","49.4601857"
"Block F","ST_PETER_PORT","385000.00","2","1","true",,"AVAILABLE","Local","Buy","Apartment","-2.5428899","49.4506288"
"Blanches Farm","ST_MARTINS","1350000.00","4","4","true",,"AVAILABLE","Local","Buy","House","-2.5455459","49.4330860"
"Bijou De La Mer Deux","ST_PETERS","850000.00","5","2","true",,"AVAILABLE","Local","Buy","Semi-Detached","-2.6234430","49.4313519"
"Flat 6","ST_PETER_PORT","365000.00","2","1","true","true","AVAILABLE","Local","Buy","Apartment","-2.5416690","49.4544939"
"Elm Ridge","CASTEL","589000.00","2","1","true",,"AVAILABLE","Local","Buy","Bungalow","-2.5790259","49.4636489"
"The Rectory","CASTEL","1850000.00","4",,"true",,"AVAILABLE","Local","Buy","House","-2.5939915","49.4723412"
"L'Escale","ST_SAVIOUR","1225000.00","5","2","true",,"AVAILABLE","Local","Buy","House","-2.6288160","49.4585560"
"Meadow View","ST_SAVIOUR","1295000.00","3","2","true",,"AVAILABLE","Local","Buy","Bungalow","-2.6337430","49.4508719"
"Fairmead","ST_PETER_PORT","865000.00","4","2","true",,"AVAILABLE","Local","Buy","House","-2.5443438","49.4592892"
"Mont Orgueil","VALE","645000.00","4","1","true",,"AVAILABLE","Local","Buy","Bungalow","-2.5634850","49.4874170"
"Homelea","VALE","650000.00",,,"true",,"AVAILABLE","Local","Buy","Semi-Detached","-2.5732905","49.4864624"
"24","ST_PETER_PORT","625000.00","4","2",,,"AVAILABLE","Local","Buy","House","-2.5424840","49.4522540"
"1 Clovelly Mews","ST_MARTINS","765000.00","3","2","true",,"AVAILABLE","Local","Buy","House","-2.5588449","49.4375760"
"Poppy View","ST_PETERS","395000.00","1","1","true",,"AVAILABLE","Local","Buy","Apartment","-2.6215901","49.4355181"
"Le Carrefour","ST_SAVIOUR","899000.00","3","2","true","true","AVAILABLE","Local","Buy","Bungalow","-2.6275300","49.4383520"
"Pebble Cottage","CASTEL","745000.00","3","3","true",,"AVAILABLE","Local","Buy","Semi-Detached","-2.5880350","49.4791019"
"1","ST_PETER_PORT","825000.00","2","1","true","true","AVAILABLE","Open","Buy","Semi-Detached","-2.5565970","49.4610849"
"2 Clovelly Mews","ST_MARTINS","765000.00","3","2","true",,"AVAILABLE","Local","Buy","House","-2.5588229","49.4375930"
"Apartment 1 Clifton","ST_PETER_PORT","1950000.00","2","2","true",,"AVAILABLE","Open","Buy","Apartment","-2.5384600","49.4550210"
"Dodici","ST_PETER_PORT","645000.00","2","2","true",,"AVAILABLE","Local","Buy","House","-2.5524810","49.4529730"
"Flat 1 Dronfield","VALE","340000.00","2","1","true",,"AVAILABLE","Local","Buy","House","-2.5174500","49.4865240"
"The Barn","TORTEVAL","525000.00",,,"true",,"AVAILABLE","Local","Buy","House","-2.6451023","49.4315033"
"Tagoro","CASTEL","1295000.00","4","3","true","true","AVAILABLE","Open","Buy","House","-2.5953490","49.4698429"
"Dell Cottage","ST_ANDREW","775000.00","3","2","true",,"AVAILABLE","Local","Buy","House","-2.5614075","49.4441680"
"Candie Apartments","ST_PETER_PORT","420000.00","1","1","true",,"AVAILABLE","Local","Buy","House","-2.5398809","49.4583377"
"2","ST_SAMPSON","1150000.00","4","2","true",,"AVAILABLE","Local","Buy","House","-2.5539436","49.4758077"
"Greenfields","ST_ANDREW","1375000.00","5","4","true",,"AVAILABLE","Local","Buy","House","-2.5618840","49.4452932"
"Catharina Court","ST_MARTINS","425000.00",,,"true",,"AVAILABLE","Local","Buy","Terraced","-2.5546540","49.4293266"
"3a The Studio","ST_PETER_PORT","310000.00","1","1","true",,"AVAILABLE","Local","Buy","Flat","-2.5413070","49.4547499"
"91","ST_PETER_PORT","895000.00","5","2","true",,"AVAILABLE","Local","Buy","House","-2.5455209","49.4518950"
"La Cachette","ST_MARTINS","1495000.00","4","3","true","true","AVAILABLE","Local","Buy","Bungalow","-2.5539529","49.4363940"
"Les Padins Farm","ST_SAVIOUR","1495000.00","4","1",,,"AVAILABLE","Local","Buy","House","-2.6243500","49.4473720"
"La Cachette","VALE","640000.00","2","1","true",,"AVAILABLE","Local","Buy","Bungalow","-2.5259909","49.4919968"
"2, Westcommon Villas","VALE","398000.00","2","1","true",,"AVAILABLE","Local","Buy","Apartment","-2.5377459","49.4941990"
"Toujours","VALE","795000.00","4","2","true",,"AVAILABLE","Local","Buy","House","-2.5213770","49.4947230"
"La Cache","VALE","1350000.00","4","4","true",,"AVAILABLE","Local","Buy","House","-2.5640960","49.4854429"
"Flat C","ST_PETER_PORT","395000.00","2","1","true",,"AVAILABLE","Local","Buy","Apartment","-2.5526689","49.4503810"
"Apartment 2","ST_PETER_PORT","435000.00","1","1",,,"AVAILABLE","Local","Buy","Apartment","-2.5471210","49.4567610"
"Moulinet","ST_PETER_PORT","4450000.00","3","3",,,"AVAILABLE","Open","Buy","Apartment","-2.5347390","49.4595190"
"Apartment 11","ST_PETER_PORT","510000.00","1","1",,,"AVAILABLE","Local","Buy","Apartment","-2.5471210","49.4567610"
"La Pascalette","CASTEL","775000.00","4","2","true","true","AVAILABLE","Local","Buy","House","-2.6034790","49.4667600"
"Ashburton Grove","ST_PETER_PORT","495000.00","2","1","true","true","AVAILABLE","Local","Buy","Terraced","-2.5404290","49.4680690"
"Apartment 12","ST_PETER_PORT","510000.00","1","1",,,"AVAILABLE","Local","Buy","Apartment","-2.5471210","49.4567610"
"Carrick House","ST_PETER_PORT","1850000.00","2","2",,,"AVAILABLE","Open","Buy","Apartment","-2.5358160","49.4503259"
"La Croix Paysant","ST_SAVIOUR","1450000.00","6","2","true","true","AVAILABLE","Local","Buy","House","-2.6168900","49.4431190"
"Les Amballes Lodge and Development Site","ST_PETER_PORT","1195000.00","5","2","true","true","AVAILABLE","Local","Buy","House","-2.5361530","49.4622150"
"The Nook","VALE","640000.00","2","1","true","true","AVAILABLE","Local","Buy","House","-2.5753029","49.4869007"
"Les Caches Court","ST_MARTINS","435000.00","2","1","true",,"AVAILABLE","Local","Buy","Apartment","-2.5615850","49.4369428"
"Whitesands","CASTEL","805000.00","4","2","true",,"AVAILABLE","Local","Buy","House","-2.5851489","49.4820560"
"Esdale Cottage","ST_SAMPSON","505000.00","2","1","true",,"AVAILABLE","Local","Buy","Semi-Detached","-2.5679042","49.4899840"
"Wavely","ST_SAMPSON","675000.00","2","1","true",,"AVAILABLE","Local","Buy","House","-2.5459510","49.4891200"
"Little Haven","VALE","795000.00","4","2","true",,"AVAILABLE","Local","Buy","House","-2.5258983","49.4927411"
"La Petite Maison","ST_SAMPSON","665000.00","3","1","true","true","AVAILABLE","Local","Buy","Bungalow","-2.5479246","49.4886433"
"Marina Court","ST_PETER_PORT","400000.00","1","1","true",,"AVAILABLE","Local","Buy","Apartment","-2.5345216","49.4600969"
"La Siesta","ST_MARTINS","1250000.00","5","3","true",,"AVAILABLE","Local","Buy","House","-2.5590316","49.4448800"
"La Mignonne","ST_SAMPSON","450000.00","2","1","true","true","AVAILABLE","Local","Buy","Semi-Detached","-2.5272782","49.4762605"
"Pen-Y-Graig","ST_MARTINS","610000.00","3","1","true",,"AVAILABLE","Local","Buy","Bungalow","-2.5477240","49.4424420"
"White Horses","ST_MARTINS","1300000.00","3","1","true","true","AVAILABLE","Local","Buy","Bungalow","-2.5385290","49.4305049"
